{
  "instructions": "Each pin needs a lat/lng, a label, and a list of wineIds matching the ids in menu.json. The map auto-fits to whichever country's pins are focused, so no center/zoom tuning is needed here. Add a new country by adding a key under 'countries' with its own 'pins' array.",
  "countries": {
    "france": {
      "label": "France",
      "pins": [
        { "id": "cote-des-blancs", "label": "Côte des Blancs, Champagne", "lat": 48.97, "lng": 3.95, "wineIds": ["m-02"] },
        { "id": "montagne-de-reims", "label": "Montagne de Reims, Champagne", "lat": 49.05, "lng": 4.10, "wineIds": ["m-03", "m-04", "m-05"] },
        { "id": "muscadet-le-landreau", "label": "Le Landreau, Loire Valley", "lat": 47.27, "lng": -1.30, "wineIds": ["m-06"] },
        { "id": "sancerre-maimbray", "label": "Maimbray, Loire Valley", "lat": 47.30, "lng": 2.82, "wineIds": ["m-07"] },
        { "id": "vouvray-montlouis", "label": "Vouvray / Montlouis, Loire Valley", "lat": 47.40, "lng": 0.80, "wineIds": ["m-09"] },
        { "id": "chablis", "label": "Chablis, Burgundy", "lat": 47.81, "lng": 3.80, "wineIds": ["m-10"] },
        { "id": "cote-de-nuits", "label": "Côte de Nuits, Burgundy", "lat": 47.14, "lng": 4.95, "wineIds": ["m-14"] },
        { "id": "vaucluse-dentelles", "label": "Dentelles de Montmirail, Rhône", "lat": 44.17, "lng": 5.06, "wineIds": ["m-12"] },
        { "id": "chateauneuf-du-pape", "label": "Châteauneuf-du-Pape, Rhône", "lat": 44.056, "lng": 4.83, "wineIds": ["m-15"] },
        { "id": "castillon-bordeaux", "label": "Castillon, Bordeaux", "lat": 44.85, "lng": -0.04, "wineIds": ["m-16"] },
        { "id": "sauternes", "label": "Sauternes, Bordeaux", "lat": 44.53, "lng": -0.33, "wineIds": ["m-19", "m-20"] },
        { "id": "roussillon", "label": "Roussillon", "lat": 42.70, "lng": 2.75, "wineIds": ["m-18"] },
        { "id": "cognac", "label": "Cognac", "lat": 45.69, "lng": -0.33, "wineIds": ["m-21"] }
      ]
    },
    "spain": {
      "label": "Spain",
      "pins": [
        { "id": "penedes", "label": "Penedès, Catalonia", "lat": 41.36, "lng": 1.77, "wineIds": ["m-01"] },
        { "id": "rias-baixas", "label": "Rías Baixas, Galicia", "lat": 42.51, "lng": -8.83, "wineIds": ["m-08"] },
        { "id": "getaria", "label": "Getaria, Basque Country", "lat": 43.30, "lng": -2.20, "wineIds": ["m-11"] },
        { "id": "sierra-de-gredos", "label": "Sierra de Gredos, Castilla-La Mancha", "lat": 40.06, "lng": -4.29, "wineIds": ["m-13"] },
        { "id": "ribera-del-duero", "label": "Ribera del Duero, Castilla y León", "lat": 41.75, "lng": -3.53, "wineIds": ["m-17"] }
      ]
    },
    "portugal": {
      "label": "Portugal",
      "pins": [
        { "id": "douro-valley", "label": "Douro Valley", "lat": 41.15, "lng": -7.80, "wineIds": ["m-22", "m-23"] },
        { "id": "madeira-island", "label": "Madeira", "lat": 32.65, "lng": -16.92, "wineIds": ["m-24", "m-25", "m-26", "m-27"] }
      ]
    }
  }
}
